Country,State,City,Latitude,Longitude
Australia,New South Wales,Central Tilba,-36.30451,150.00705
Australia,Queensland,Mission Beach,-17.86321,146.08881
Australia,Victoria,Taradale,-37.14093,144.32921
Australia,Tasmania,Zeehan,-41.8892,145.30855
Australia,New South Wales,Burrawang,-34.57824,150.5167
